title,total_reviews,safe_reviews,unsafe_reviews,classified_reviews,safety_pct,ranking_score,safety_label,address,placeId,price,categoryName,menu,lat,lng
Piccolina Gelateria,718,120,1,121,0.9917355371900827,297.5,safe,"43 Hardware Ln, Melbourne VIC 3000, Australia",ChIJV5RpXR1d1moRVqlvLPQvIuk,$$,Ice cream shop,https://www.piccolinagelateria.com.au/shop,-37.81356299999999,144.9611247
Roccella Italian Restaurant East Melbourne,846,107,4,111,0.963963963963964,257.5,safe,"158 Clarendon St, East Melbourne VIC 3002, Australia",ChIJiWZcQlZD1moReLf1KVvQ98M,A$40–60,Italian restaurant,https://www.roccellamelbourne.com.au/menu?utm_source=GMB&utm_medium=traffic&utm_campaign=direct&utm_term=menu,-37.8119728,144.9835404
Regretless - Low Carb Pleasure,777,77,2,79,0.9746835443037974,187.5,safe,"Mid City Centre, Shop 13-14/200 Bourke St, Melbourne VIC 3000, Australia",ChIJr_-E1mVD1moRXASlIAsvPtA,A$1–20,Cafe,https://regretlessau.square.site/cafe-menu,-37.8122805,144.9672498
Roule Galette,738,49,0,49,1.0,122.5,safe,"Shop 1/241 Flinders Ln, Melbourne VIC 3000, Australia",ChIJCYzQJbRC1moRnD9tQLJY4PU,A$20–40,French restaurant,http://www.roulegalette.com.au/crepe-and-galette-menu,-37.8167363,144.966279
Romo Pizza Bar,537,45,3,48,0.9375,105.0,safe,"21 Katherine Pl, Melbourne VIC 3000, Australia",ChIJxbr0FZFd1moRQHxEjpKLZIs,A$20–40,Pizza restaurant,http://www.romopizzabar.com.au/,-37.8198897,144.9564021
Robo Mao,553,38,0,38,1.0,95.0,safe,"214 Little Bourke St, Melbourne VIC 3000, Australia",ChIJq4oIJMpC1moR1KImxUlIAI8,A$20–40,Chinese restaurant,http://www.robomao.com.au/,-37.8121663,144.96628
Kudo,342,37,0,37,1.0,92.5,safe,"8 Little Collins St, Melbourne VIC 3000, Australia",ChIJq9opOaND1moRnDp8ZgDkx7s,A$1–20,Bakery,,-37.812403,144.9730281
Square & Compass,450,37,1,38,0.9736842105263158,90.0,safe,"222 Clarendon St, East Melbourne VIC 3002, Australia",ChIJExrt7-dC1moRWgvD2gf6J50,A$20–40,Cafe,http://squareandcompass.com.au/_pdfs/menu.pdf,-37.809698,144.9839472
Chin Chin,774,35,1,36,0.9722222222222222,85.0,safe,"125 Flinders Ln, Melbourne VIC 3000, Australia",ChIJ__3SxLdC1moRvQXAfpwM1hI,$$,Asian restaurant,,-37.8156149,144.9703757
KATA KITA,722,31,0,31,1.0,77.5,safe,"266 La Trobe St, Melbourne VIC 3000, Australia",ChIJee7jt2lD1moRZMlJpG1zbTs,A$20–40,Asian restaurant,https://www.katakita.com.au/wp-content/uploads/2025/03/KK-FOOD.pdf,-37.8099775,144.9620272
My Goodness,626,29,0,29,1.0,72.5,safe,"186 City Rd, Southbank VIC 3006, Australia",ChIJ843x0KxC1moRQO7OEKKp_tY,A$20–40,Restaurant,https://mygoodness.redcatcloud.com.au/weborder/,-37.8241584,144.961876
Cookie,690,25,1,26,0.9615384615384616,60.0,safe,"252 Swanston St, Melbourne VIC 3000, Australia",ChIJL5DOQcpC1moRji9-TYh3UUQ,$$,Bar,https://www.cookiemelbourne.com.au/,-37.8120053,144.965164
Keki milk bar,425,23,0,23,1.0,57.5,safe,"350 La Trobe St, Melbourne VIC 3000, Australia",ChIJ0yx2kS5d1moRj8kJypX6nRk,A$1–20,Cafe,,-37.8106785,144.9592774
SpudBAR Richmond,127,23,0,23,1.0,57.5,safe,"226 Swan St, Richmond VIC 3121, Australia",ChIJ3YLg4oxC1moR_cyUMOxetII,A$1–20,Health food restaurant,https://spudbar.com.au/menu,-37.8257418,144.9972064
A25 Pizzeria Centro (CBD),550,21,1,22,0.9545454545454546,50.0,safe,"397 Little Collins St, Melbourne VIC 3000, Australia",ChIJBSIvyEpd1moRXo6K829C--Q,A$20–40,Italian restaurant,https://a25.com.au/menus/,-37.8158796,144.9616383
Fatto a Mano,136,18,0,18,1.0,45.0,safe,"228 Gertrude St, Fitzroy VIC 3065, Australia",ChIJV8D7k91C1moRNdFUJSnC6KQ,A$1–20,Bakery,,-37.806494,144.982207
UNION KIOSK,602,17,1,18,0.9444444444444444,40.0,safe,"10 Howey Pl, Melbourne VIC 3000, Australia",ChIJcyt-r7VC1moR918ZijDitxU,A$1–20,Vegan restaurant,https://unionkiosk.com.au/menu,-37.814994,144.965199
Schmucks Bagels,423,14,2,16,0.875,30.0,safe,"Tenancy 9/567 Collins St, Melbourne VIC 3000, Australia",ChIJLaFu24xd1moRM5S_cRJ2Ehg,A$1–20,Bagel shop,,-37.818927,144.9553047
Hella Good | Emporium,230,11,0,11,1.0,27.5,safe,"Emporium Shopping Centre, 287 Lonsdale St, Melbourne VIC 3000, Australia",ChIJudrfqcBD1moRKv8m4-kyC4s,A$20–40,Greek restaurant,https://www.hellagood.com.au/menu,-37.8121358,144.9641818
Hotel Nacional,448,11,0,11,1.0,27.5,safe,"23-25 Hardware Ln, Melbourne VIC 3000, Australia",ChIJ_1DxAkJD1moRmusslphummc,,Mexican restaurant,https://www.hotelnacional.co/food,-37.8140853,144.9613341
Spaghetti Tree,719,6,1,7,0.8571428571428571,12.5,safe,"59 Bourke St, Melbourne VIC 3000, Australia",ChIJH6U1mMhC1moR3NZKo1n_rzQ,A$20–40,Italian restaurant,https://spaghettitree.com.au/wp-content/uploads/2022/07/SPAGHETTI-TREE-MENU-2022.pdf,-37.8119715,144.9715104
Hotel Spencer Bar & Grill,216,5,0,5,1.0,12.5,safe,"475 Spencer St, West Melbourne VIC 3003, Australia",ChIJmevfxEdd1moRkZwiO8PaDWg,A$20–40,Pub,http://www.hotelspencer.com.au/menu,-37.8095201,144.9492945
Seedling Cafe,454,5,1,6,0.8333333333333334,10.0,safe,"275 Flinders Ln, Melbourne VIC 3000, Australia",ChIJ2f-iFLRC1moRL9heOZ7yBS4,A$20–40,Health food restaurant,https://www.seedlingcafe.com.au/menu,-37.817068,144.965393
The Workers' Food Room,26,3,0,3,1.0,7.5,safe,"349 Little Collins St, Melbourne VIC 3000, Australia",ChIJT80zXV9D1moREL6pR4w5Jyg,A$1–20,Cafe,,-37.8154635,144.963264
Bodega Underground,710,2,0,2,1.0,5.0,safe,"55 Little Bourke St, Melbourne VIC 3000, Australia",ChIJv6N7tshC1moRWE3v9GD65QU,$$,Mexican restaurant,https://www.bodegaunderground.com.au/menu.html,-37.8109426,144.9709804
Il Riso,12,2,0,2,1.0,5.0,safe,"546 Collins St, Melbourne VIC 3000, Australia",ChIJjcX5NwBd1moRd3_MK8UN6bY,A$20–40,Gluten-free restaurant,,-37.8182969,144.955897
Onigiri Kitchen & Sake Bar,107,2,0,2,1.0,5.0,safe,"1 Degraves St, Melbourne VIC 3000, Australia",ChIJOWAIUABD1moRGcp14ShaCoQ,A$20–40,Japanese restaurant,https://onigiri-kitchen.square.site/?location=LVBTJ5302ZVMK,-37.8177151,144.9659015
"Nosh Galleria, Melbourne",332,1,0,1,1.0,2.5,safe,"352 Little Collins St, Melbourne VIC 3000, Australia",ChIJty5V77RC1moRgiibE9808XQ,A$1–20,Japanese restaurant,https://order.nosh.net.au/?selectedSite=1168,-37.8153216,144.9629626
Remo’s Pasta and Tiramisù,186,1,0,1,1.0,2.5,safe,"198 Little Collins St, Melbourne VIC 3000, Australia",ChIJ6zGIQABD1moRU7kQCZzPPI8,A$20–40,Italian restaurant,,-37.8140323,144.9673544
Chocolate Buddha,715,1,1,2,0.5,0.0,unsafe,"Federation Square, Swanston St & Flinders St, Melbourne VIC 3000, Australia",ChIJT8T86bZC1moR8qVV13PNTsc,A$40–60,Japanese restaurant,http://chocolatebuddha.com.au/menu/,-37.8177174,144.9687344
Bowls Baby,89,0,1,1,0.0,-2.5,unsafe,"97 Little Collins St, Melbourne VIC 3000, Australia",ChIJRyz7hE9D1moR9_iPticQ2Cs,,Takeout Restaurant,https://bowlsbaby.com/menu/,-37.8131766,144.970327
